City,Latitude,Longitude,Max Temperature,Humidity,Windspeed,Cloudiness,Date,Country
Rikitea,-23.12,-134.97,74.58800000000005,80,8.78,100,1602982257,PF
Vaini,-21.2,-175.2,78.80000000000001,83,8.2,75,1602982258,TO
Blyznyuky,48.86,36.56,60.728000000000065,89,7.1,100,1602982258,UA
Dunedin,-45.87,170.5,53.00600000000003,70,0.89,53,1602982259,NZ
Abu Dhabi,24.47,54.37,77.0,57,1.5,0,1602982162,AE
Barrow,71.29,-156.79,21.2,73,5.7,1,1602982259,US
Yellowknife,62.46,-114.35,24.998000000000026,92,5.1,75,1602982122,CA
Atuona,-9.8,-139.03,78.49400000000009,73,6.09,0,1602982260,PF
Albany,-35.02,117.89,60.8,77,3.6,40,1602982260,AU
Busselton,-33.65,115.33,62.99600000000005,68,2.68,0,1602982260,AU
Saint-Augustin,51.23,-58.65,55.97600000000009,89,7.44,97,1602982261,CA
Cape Town,-33.93,18.42,57.992,93,2.1,20,1602982258,ZA
Itum-Kale,42.74,45.58,57.776000000000096,36,3.02,0,1602982261,RU
Prince Rupert,54.32,-130.32,46.4,81,1.5,90,1602982261,CA
Tezu,27.92,96.17,76.6760000000001,70,0.84,0,1602982262,IN
Nānākuli,21.39,-158.15,82.4,74,2.6,1,1602982204,US
Key West,24.56,-81.78,86.0,74,4.6,1,1602982128,US
Cidreira,-30.18,-50.21,67.17200000000004,81,10.16,100,1602982262,BR
Alpena,45.06,-83.43,48.992,65,7.2,90,1602982262,US
Sibolga,1.74,98.78,80.33000000000004,72,0.48,100,1602982263,ID
Bluff,-46.6,168.33,53.00600000000003,64,4.47,93,1602982263,NZ
Butaritari,3.07,172.79,82.49000000000002,78,8.91,7,1602982263,KI
Hilo,19.73,-155.09,87.80000000000001,55,7.7,75,1602982263,US
Petropavlovsk-Kamchatskiy,53.05,158.65,44.6,56,1.0,40,1602982263,RU
Tongchuanshi,35.08,109.09,55.67000000000006,42,1.08,55,1602982264,CN
Ribeira Grande,38.52,-28.7,63.06800000000008,63,6.28,7,1602982264,PT
Saint Paul Harbor,57.79,-152.41,46.4,61,1.5,90,1602982082,US
Vargashi,55.36,65.85,31.208000000000006,94,5.08,0,1602982265,RU
Mweka,-4.85,21.57,69.04400000000007,97,0.13,32,1602982265,CD
Ushuaia,-54.8,-68.3,41.0,80,2.6,40,1602982265,AR
Port Alfred,-33.59,26.89,63.48200000000001,85,6.53,100,1602982266,ZA
Kumul,42.8,93.45,46.52600000000009,45,2.43,0,1602982266,CN
Bafilo,9.35,1.27,73.4,100,1.0,100,1602982266,TG
Departamento de Maldonado,-34.67,-54.92,69.80000000000001,73,1.5,33,1602982267,UY
Vestmannaeyjar,63.44,-20.27,47.53399999999999,85,8.15,100,1602982267,IS
Husavik,66.04,-17.34,46.4,75,9.8,90,1602982268,IS
North Bend,43.41,-124.22,62.00600000000003,72,8.7,1,1602982268,US
Fomboni,-12.28,43.74,78.33200000000002,83,6.18,1,1602982268,KM
Tautira,-17.73,-149.15,82.4,74,7.7,75,1602982268,PF
Waddān,29.16,16.14,68.19800000000004,88,3.42,3,1602982269,LY
Djenné,13.91,-4.55,86.9,30,0.92,55,1602982269,ML
Bengkulu,-3.8,102.27,77.77400000000002,81,1.25,100,1602982269,ID
Örnsköldsvik,63.29,18.72,30.2,92,5.1,12,1602982037,SE
Nainital,29.4,79.45,47.228000000000065,83,1.64,0,1602982270,IN
Port Elizabeth,-33.92,25.57,60.8,87,7.7,100,1602982270,ZA
Nikolskoye,59.7,30.79,35.99600000000005,80,4.0,75,1602982270,RU
Puerto Ayora,-0.74,-90.35,71.00600000000003,86,2.68,96,1602982111,EC
Qaanaaq,77.48,-69.36,36.01400000000003,85,3.58,100,1602982271,GL
Luanda,-8.84,13.23,74.62400000000002,87,3.55,100,1602982109,AO
Hobart,-42.88,147.33,60.00800000000001,58,4.1,75,1602982064,AU
Vilhena,-12.74,-60.15,75.02000000000007,64,0.2,67,1602982272,BR
Port Hardy,50.7,-127.42,48.2,87,1.5,90,1602982272,CA
Osakarovka,50.56,72.57,45.842,84,4.47,100,1602982272,KZ
Hereford,34.82,-102.4,78.80000000000001,9,3.6,1,1602982272,US
Vredendal,-31.67,18.5,55.616000000000014,88,1.77,0,1602982273,ZA
Avarua,-21.21,-159.78,78.80000000000001,69,7.7,86,1602982273,CK
Kapaa,22.08,-159.32,80.99600000000005,94,4.46,40,1602982273,US
Provideniya,64.38,-173.3,39.038000000000046,83,1.12,45,1602982273,RU
Ulladulla,-35.35,150.47,66.99199999999999,77,4.6,75,1602982274,AU
Punta Arenas,-53.15,-70.92,42.8,93,3.1,90,1602982274,CL
Khatanga,71.97,102.5,4.406000000000027,90,3.56,0,1602982274,RU
Belyy Yar,53.6,91.39,46.4,61,4.0,100,1602982274,RU
Kamaishi,39.27,141.88,51.8,87,1.5,75,1602982275,JP
Yulara,-25.24,130.99,75.2,44,9.3,94,1602982275,AU
Elko,41.0,-115.5,73.4,17,6.2,1,1602982275,US
Brenham,30.17,-96.4,78.80000000000001,78,4.1,90,1602982275,US
Aschersleben,51.75,11.47,46.004000000000055,93,0.45,11,1602982276,DE
Hermanus,-34.42,19.23,51.00800000000001,94,2.56,79,1602982276,ZA
Zarubino,42.63,131.09,53.906000000000034,56,5.69,0,1602982276,RU
Chokurdakh,70.63,147.92,23.504000000000055,98,2.68,100,1602982277,RU
Tessalit,20.2,1.01,82.20200000000008,17,3.64,0,1602982277,ML
Limbang,4.75,115.0,80.6,78,1.0,75,1602982277,MY
Lagoa,39.05,-27.98,62.096000000000046,62,6.37,31,1602982278,PT
College,64.86,-147.8,28.994000000000074,39,1.5,75,1602982278,US
Cherskiy,68.75,161.3,24.098000000000024,94,6.25,41,1602982278,RU
Bindi,9.92,-11.45,72.32000000000006,92,0.4,92,1602982279,SL
Carnarvon,-24.87,113.63,71.6,73,5.1,45,1602982279,AU
Koróni,36.8,21.95,64.00400000000005,87,3.1,5,1602982279,GR
Qasigiannguit,68.82,-51.19,37.4,93,2.6,74,1602982280,GL
Merowe,18.48,31.82,82.56200000000007,15,6.15,0,1602982280,SD
Georgetown,-7.93,-14.42,73.77800000000008,75,5.47,19,1602982280,SH
Mariënburg,5.85,-55.02,82.00400000000005,87,1.34,86,1602982280,SR
Antofagasta,-23.65,-70.4,59.0,77,5.7,90,1602982281,CL
San Quintín,30.48,-115.95,72.78800000000004,68,4.6,0,1602982281,MX
Jodhpur,26.29,73.03,80.78000000000004,38,4.23,47,1602982281,IN
Hohhot,40.81,111.65,33.8,55,1.0,0,1602982281,CN
San Andrés,12.58,-81.7,84.2,79,4.6,75,1602982246,CO
Ilebo,-4.32,20.58,70.91600000000001,96,0.39,94,1602982282,CD
Margate,-30.86,30.37,67.58600000000007,73,3.23,0,1602982282,ZA
Hamilton,32.29,-64.78,77.0,78,6.2,40,1602982282,BM
Saldanha,-33.01,17.94,55.400000000000006,87,2.1,0,1602982282,ZA
Acapulco de Juárez,16.86,-99.89,84.2,83,3.1,75,1602982283,MX
Nanortalik,60.14,-45.24,38.80400000000005,83,0.72,23,1602982283,GL
Atar,20.52,-13.05,88.08800000000005,28,2.92,52,1602982283,MR
Kiama,-34.68,150.87,73.00400000000005,70,1.79,52,1602982283,AU
Tasiilaq,65.61,-37.64,35.6,80,6.7,9,1602982283,GL
La Providencia,28.72,-111.58,87.00800000000001,66,3.13,57,1602982284,MX
Ayamé,5.61,-3.16,73.81400000000004,97,1.42,100,1602982284,CI
Mahébourg,-20.41,57.7,69.80000000000001,83,1.5,20,1602982284,MU
Nosy Varika,-20.58,48.53,71.99600000000005,86,2.2,94,1602982284,MG
Klyuchi,52.27,79.17,50.55800000000001,81,7.55,100,1602982284,RU
Bilgi,16.35,75.62,70.16000000000008,87,2.41,3,1602982285,IN
Kamskiye Polyany,55.43,51.42,33.8,80,2.0,75,1602982285,RU
Ponta do Sol,17.2,-25.09,80.6,83,7.2,20,1602982285,CV
Aksarka,66.56,67.8,21.668000000000085,95,3.55,100,1602982285,RU
Brigantine,39.41,-74.36,53.99600000000005,81,0.6,1,1602982245,US
Mogadishu,2.04,45.34,79.01600000000002,82,6.32,97,1602982286,SO
Saint-Georges,3.9,-51.8,75.23600000000008,89,1.34,17,1602982286,GF
Saint-Leu,-21.15,55.28,69.80000000000001,64,3.1,12,1602982287,RE
Nísia Floresta,-6.09,-35.21,77.0,78,4.6,20,1602982287,BR
Yala,6.33,101.25,77.0,94,1.5,40,1602982288,TH
New Norfolk,-42.78,147.06,60.00800000000001,71,2.24,99,1602982288,AU
Sitka,57.05,-135.33,44.6,48,6.7,90,1602982288,US
Tuktoyaktuk,69.45,-133.04,17.6,85,2.6,5,1602982289,CA
Smithers,54.78,-127.17,35.6,74,5.1,75,1602981459,CA
Souillac,-20.52,57.52,69.80000000000001,83,1.5,20,1602982289,MU
Vila Franca do Campo,37.72,-25.43,62.6,67,3.1,75,1602982289,PT
Biloxi,30.4,-88.89,68.0,49,1.5,1,1602982123,US
Mount Isa,-20.73,139.5,93.2,28,4.6,0,1602982290,AU
Oranjemund,-28.55,16.43,57.50600000000003,91,3.15,1,1602982290,NA
Saint-Philippe,-21.36,55.77,69.80000000000001,64,3.1,38,1602982291,RE
São João da Barra,-21.64,-41.05,70.05200000000008,84,4.05,33,1602982291,BR
Kununurra,-15.77,128.73,89.6,49,3.6,17,1602982291,AU
Indi,17.17,75.97,73.5260000000001,82,2.35,86,1602982291,IN
Whitehorse,60.72,-135.05,24.8,45,3.6,5,1602982292,CA
Kruisfontein,-34.0,24.73,57.00200000000008,94,5.58,100,1602982292,ZA
Bambous Virieux,-20.34,57.76,69.80000000000001,83,1.5,20,1602982292,MU
Constitucion,23.99,-104.67,73.4,23,1.51,5,1602982292,MX
Arraial do Cabo,-22.97,-42.03,70.46600000000001,82,6.37,1,1602982292,BR
Ostrovnoy,68.05,39.51,32.41400000000003,88,1.27,1,1602982293,RU
Gusau,12.16,6.66,78.53000000000004,67,3.75,29,1602982293,NG
East London,-33.02,27.91,65.01200000000006,79,5.12,100,1602982293,ZA
Alexandria,38.8,-77.05,53.99600000000005,66,3.6,1,1602982246,US
Hala,25.81,68.42,71.6,73,2.1,15,1602982294,PK
Banagher,53.19,-7.99,42.008,95,2.8,79,1602982294,IE
Porto União,-26.24,-51.08,55.58000000000004,87,1.7,4,1602982294,BR
Hithadhoo,-0.6,73.08,82.70600000000003,77,9.28,100,1602982294,MV
Touros,-5.2,-35.46,77.0,78,4.6,20,1602982294,BR
Bandarbeyla,9.49,50.81,78.7100000000001,79,3.45,0,1602982295,SO
Bollnäs,61.35,16.39,37.148000000000025,78,4.02,5,1602982296,SE
Dakar,14.69,-17.44,82.4,94,2.1,40,1602982065,SN
Castro,-42.47,-73.77,50.0,87,5.7,90,1602982088,CL
Birao,10.28,22.79,73.25600000000003,81,1.98,100,1602982297,CF
Aykhal,66.0,111.5,5.0,92,2.0,0,1602982297,RU
Ghanzi,-21.57,21.78,70.53800000000004,23,3.74,0,1602982298,BW
Kim,40.21,70.47,44.6,81,1.0,0,1602982298,TJ
Garoowe,8.41,48.48,77.93600000000006,68,2.87,20,1602982298,SO
Äänekoski,62.69,25.82,37.99400000000007,100,2.1,90,1602982299,FI
Port Blair,11.67,92.75,78.27800000000008,86,4.8,100,1602982299,IN
Raudeberg,61.99,5.14,42.008,77,10.68,51,1602982299,NO
Kalabo,-14.97,22.68,70.53800000000004,24,2.43,0,1602982299,ZM
Linhares,-19.39,-40.07,69.18800000000005,85,1.9,97,1602982108,BR
Hammerfest,70.66,23.68,26.6,100,2.6,100,1602982300,NO
Pathein,16.78,94.73,77.558,89,3.43,30,1602982300,MM
Somerset,40.57,-74.55,50.0,81,1.17,1,1602982300,US
Urengoy,65.97,78.37,23.972000000000037,97,6.47,96,1602982301,RU
Primorsk,60.37,28.61,46.38200000000002,84,11.44,100,1602982301,RU
Turbat,26.0,63.04,73.68800000000005,16,8.56,0,1602982301,PK
Pakdasht,35.48,51.68,53.6,34,2.1,0,1602982301,IR
Kutum,14.2,24.67,74.69600000000005,20,3.63,99,1602982301,SD
Coos Bay,43.37,-124.22,62.00600000000003,72,8.7,1,1602982302,US
Victoria,-4.62,55.45,78.80000000000001,83,1.5,20,1602982186,SC
Shelburne,44.08,-80.2,44.00600000000003,69,1.5,1,1602982302,CA
Rocha,-34.48,-54.33,61.66400000000003,85,3.79,36,1602982302,UY
Longyearbyen,78.22,15.64,24.8,79,2.1,40,1602982303,SJ
Aklavik,68.22,-135.01,23.0,53,1.0,20,1602982303,CA
Ouadda,8.08,22.4,68.21600000000001,84,0.63,100,1602982303,CF
Creel,27.75,-107.63,58.694000000000074,55,2.96,0,1602982303,MX
Karema,-6.82,30.44,76.892,55,3.08,20,1602982303,TZ
Talnakh,69.49,88.4,26.6,92,4.0,92,1602982304,RU
Batemans Bay,-35.72,150.18,62.00600000000003,86,2.7,34,1602982304,AU
Buraidah,26.33,43.98,64.4,26,2.39,0,1602982014,SA
Douglas,41.3,-96.17,57.2,44,3.6,75,1602982126,US
Ilulissat,69.22,-51.1,37.4,93,2.6,100,1602982304,GL
Jamestown,-15.94,-5.72,60.74600000000005,96,6.95,97,1602982305,SH
Āsasa,7.1,39.2,51.044000000000075,81,0.62,17,1602982305,ET
Lewistown,40.6,-77.57,42.998000000000026,61,0.98,1,1602982305,US
Alofi,-19.06,-169.92,84.2,79,5.1,100,1602982306,NU
San Jose de Guanipa,8.89,-64.17,77.54000000000002,83,3.03,100,1602982306,VE
Kawalu,-7.38,108.21,75.97400000000002,80,1.5,51,1602982306,ID
Iwaki,37.05,140.88,62.99600000000005,74,1.86,96,1602982307,JP
Jati,24.35,68.27,82.5260000000001,68,3.78,100,1602982307,PK
Storforshei,66.4,14.52,33.008,91,2.31,100,1602982308,NO
Thompson,55.74,-97.86,28.4,92,1.0,90,1602982309,CA
Katsuura,35.13,140.3,62.99600000000005,77,5.7,75,1602982309,JP
Bredasdorp,-34.53,20.04,53.6,93,2.1,100,1602982309,ZA
San Cristobal,-0.9,-89.62,69.8180000000001,83,4.12,84,1602982310,EC
Nieuw Amsterdam,5.88,-55.08,82.00400000000005,87,1.34,77,1602982310,SR
Dikson,73.51,80.55,17.47400000000001,94,10.57,4,1602982310,RU
Plettenberg Bay,-34.05,23.37,58.85600000000003,88,3.61,39,1602982310,ZA
Severo-Kuril'sk,50.68,156.12,47.93000000000004,62,5.69,26,1602982311,RU
Wajir,1.75,40.06,75.57800000000006,71,5.99,74,1602982311,KE
Kizema,61.11,44.83,29.966000000000008,97,3.3,40,1602982311,RU
Mananjary,-21.22,48.33,71.07800000000006,90,4.52,97,1602982311,MG
Teahupoo,-17.83,-149.27,82.4,74,7.7,75,1602982312,PF
Salalah,17.02,54.09,73.4,53,2.1,0,1602982312,OM
Xam Nua,20.42,104.04,58.56800000000008,91,1.18,100,1602982312,LA
Ambilobe,-13.2,49.05,68.30600000000004,79,1.54,0,1602982312,MG
Hambantota,6.12,81.12,73.4,100,2.6,40,1602982312,LK
Petrovsk,52.31,45.39,43.682000000000016,61,8.03,90,1602982313,RU
General Pico,-35.66,-63.76,77.61200000000005,51,4.88,0,1602982089,AR
Kiruna,67.86,20.23,24.8,92,6.2,95,1602982313,SE
Saskylakh,71.92,114.08,13.604000000000052,96,2.5,98,1602982313,RU
Ust-Maya,60.42,134.53,17.888000000000044,92,2.1,100,1602982313,RU
Valparaíso,-33.04,-71.63,51.8,100,2.6,40,1602982314,CL
Tilichiki,60.47,166.1,35.258,79,0.88,0,1602982314,RU
Henties Bay,-22.12,14.28,57.00200000000008,94,0.45,0,1602982314,NA
Cairns,-16.92,145.77,84.99199999999999,57,3.6,75,1602982212,AU
Guerrero Negro,27.98,-114.06,75.90200000000007,63,5.75,23,1602982314,MX
Nueva Loja,0.08,-76.88,72.12200000000004,95,0.76,100,1602982315,EC
Itacurubí del Rosario,-24.5,-56.68,76.6760000000001,60,3.27,87,1602982315,PY
Mar del Plata,-38.0,-57.56,69.00800000000001,82,4.1,0,1602982161,AR
Chapais,49.78,-74.85,32.0,93,1.0,1,1602982315,CA
Maniitsoq,65.42,-52.9,38.714000000000034,97,3.8,91,1602982316,GL
Lavrentiya,65.58,-171.0,38.641999999999996,87,1.46,100,1602982316,RU
Hasaki,35.73,140.83,62.99600000000005,82,4.6,75,1602982126,JP
Kahului,20.89,-156.47,91.4,49,5.1,40,1602982317,US
Kirillov,59.86,38.38,34.592,88,2.29,100,1602982317,RU
Sijunjung,-0.69,100.95,77.99000000000002,73,0.35,100,1602982317,ID
Qena,26.16,32.72,75.2,44,1.66,0,1602982317,EG
Port-Gentil,-0.72,8.78,77.88200000000002,86,4.66,100,1602982318,GA
North Myrtle Beach,33.82,-78.68,57.992,71,2.1,1,1602982318,US
Macau,-5.12,-36.63,77.16200000000006,71,7.7,0,1602982198,BR
Seoul,37.57,126.98,53.6,62,0.79,1,1602982319,KR
Tumut,-35.3,148.22,63.266000000000005,63,4.07,21,1602982319,AU
Melekhovo,56.28,41.29,35.51000000000008,87,4.73,100,1602982319,RU
Mana,5.66,-53.78,80.42000000000007,83,4.74,62,1602982320,GF
Viedma,-40.81,-63.0,72.82400000000001,43,4.96,0,1602982224,AR
Eureka,40.8,-124.16,68.0,80,2.24,1,1602982143,US
Mitú,1.2,-70.17,72.57200000000003,96,0.98,1,1602982072,CO
Mumford,5.26,-0.76,77.07200000000003,89,2.93,100,1602982321,GH
Menongue,-14.66,17.69,67.35200000000009,50,1.12,8,1602982321,AO
Upernavik,72.79,-56.15,35.45600000000003,95,6.14,100,1602982321,GL
Vodnyy,63.5,53.41,28.85,96,3.6,97,1602982321,RU
Harlingen,53.17,5.42,48.00200000000008,93,1.5,20,1602982322,NL
Bertoua,4.58,13.68,67.334,95,1.0,77,1602982322,CM
Nantucket,41.28,-70.1,53.00600000000003,53,3.6,1,1602982322,US
Esperance,-33.87,121.9,57.2,82,5.7,0,1602982322,AU
Port Lincoln,-34.73,135.87,56.516000000000005,55,3.5,36,1602982322,AU
New Haven,41.4,-72.93,46.004000000000055,70,0.27,1,1602982323,US
Havre-St-Pierre,50.23,-63.6,48.2,100,7.7,90,1602982323,CA
Kozan,37.46,35.82,73.00400000000005,100,1.5,7,1602982323,TR
Clyde River,70.47,-68.59,37.4,74,9.3,90,1602982323,CA
Ixtapa,20.7,-105.2,87.80000000000001,74,3.1,40,1602982323,MX
Baykit,61.67,96.37,37.4,89,2.23,100,1602982324,RU
Chunoyar,57.45,97.32,40.1,84,2.99,100,1602982324,RU
Manono,-7.3,27.42,74.55200000000008,74,0.81,98,1602982324,CD
Bilibino,68.05,166.44,22.982000000000014,95,1.18,100,1602982325,RU
Sydney,-33.87,151.21,73.4,56,3.1,75,1602982074,AU
Masterton,-40.96,175.66,62.99600000000005,70,3.58,34,1602982325,NZ
Esterhazy,50.65,-102.08,25.754000000000055,83,4.69,100,1602982325,CA
Praia da Vitória,38.73,-27.07,60.8,63,5.52,20,1602982325,PT
Meulaboh,4.14,96.13,77.792,79,1.57,85,1602982326,ID
Quatre Cocos,-20.21,57.76,69.80000000000001,83,1.5,20,1602982326,MU
Sioux Lookout,50.1,-91.92,33.8,50,2.1,90,1602982326,CA
Kirtipur,27.67,85.28,62.6,100,1.5,40,1602982327,NP
Nishihara,26.18,127.76,82.4,74,4.6,40,1602982327,JP
Tuatapere,-46.13,167.68,53.00600000000003,64,4.47,99,1602982327,NZ
Kota Kinabalu,5.97,116.07,82.4,78,1.5,20,1602982327,MY
Lüderitz,-26.65,15.16,65.19200000000001,43,8.61,0,1602982328,NA
Yautepec,18.88,-99.07,75.2,50,1.5,75,1602982328,MX
Verkhnyaya Inta,65.98,60.31,25.64600000000005,98,6.26,71,1602982328,RU
Richards Bay,-28.78,32.04,68.99000000000002,87,4.25,0,1602982328,ZA
Iqaluit,63.75,-68.51,33.8,74,4.1,90,1602982329,CA
Nur-Sultan,51.18,71.45,41.0,63,6.0,75,1602982329,KZ
Laguna,-28.48,-48.78,66.65,83,5.5,100,1602982329,BR
Beringovskiy,63.05,179.32,37.25600000000003,76,2.55,100,1602982329,RU
Faanui,-16.48,-151.75,79.82600000000009,75,2.2,100,1602982330,PF
Mokhotlong,-29.29,29.07,51.89000000000002,41,1.12,0,1602982330,LS
Camacha,33.08,-16.33,69.80000000000001,68,6.2,20,1602982330,PT
Wattegama,6.8,81.48,73.4,100,2.6,40,1602982331,LK
Khovd,48.01,91.64,32.97200000000004,73,0.92,7,1602982331,MN
Vao,-22.67,167.48,71.51000000000008,60,4.7,0,1602982331,NC
Kontagora,10.4,5.47,74.33600000000007,85,1.58,0,1602982332,NG
Comodoro Rivadavia,-45.87,-67.5,68.0,32,9.8,0,1602982332,AR
Ferkessédougou,9.6,-5.2,76.208,80,0.94,100,1602982332,CI
Dicabisagan,17.08,122.42,81.14000000000001,82,3.5,47,1602982332,PH
Farim,12.48,-15.22,80.6,94,2.1,0,1602982333,GW
Bethel,41.37,-73.41,44.99600000000005,75,0.27,1,1602982333,US
Tiksi,71.69,128.87,18.068000000000083,96,5.14,99,1602982333,RU
Vardø,70.37,31.11,39.30800000000001,71,6.06,85,1602982333,NO
Mount Gambier,-37.83,140.77,55.400000000000006,58,3.1,90,1602982183,AU
Ahipara,-35.17,173.17,62.88800000000005,60,3.63,2,1602982334,NZ
Nome,64.5,-165.41,37.4,86,10.8,90,1602982334,US
Sehithwa,-20.47,22.72,73.292,22,3.85,0,1602982334,BW
Chambersburg,39.94,-77.66,50.0,58,1.52,54,1602982334,US
Boguchany,58.38,97.45,39.938000000000045,87,3.87,100,1602982334,RU
Kysyl-Syr,63.9,122.76,11.57000000000006,93,2.7,71,1602982335,RU
Iskateley,67.68,53.15,29.06600000000001,97,1.48,35,1602982335,RU
Narsaq,60.92,-46.05,37.4,74,0.5,82,1602982259,GL
Challapata,-18.9,-66.77,51.044000000000075,59,4.27,59,1602982335,BO
La Romana,18.43,-68.97,78.80000000000001,83,2.1,40,1602982291,DO
Moose Factory,51.26,-80.61,28.4,92,1.02,1,1602982336,CA
Bourail,-21.57,165.48,75.79400000000007,59,1.91,65,1602982336,NC
Panabá,21.28,-88.27,76.74800000000002,91,3.29,0,1602982336,MX
Marondera,-18.19,31.55,54.464000000000034,64,1.46,0,1602982337,ZW
Katangli,51.71,143.23,46.16600000000001,74,6.82,73,1602982337,RU
Mūl,20.07,79.67,73.45400000000006,95,1.56,0,1602982337,IN
Hokitika,-42.72,170.97,56.89400000000008,86,2.03,84,1602982208,NZ
Deputatsky,69.3,139.9,14.288000000000043,96,4.55,100,1602982338,RU
Kaeo,-35.1,173.78,69.00800000000001,62,2.24,0,1602982338,NZ
Callaway,30.15,-85.57,69.00800000000001,56,2.1,1,1602982339,US
Padang,-0.95,100.35,81.37400000000002,70,0.74,100,1602982339,ID
San José,16.98,-89.9,73.74199999999999,93,0.49,100,1602982339,GT
São José da Coroa Grande,-8.9,-35.15,75.59600000000006,81,4.8,13,1602982340,BR
Ancud,-41.87,-73.82,50.0,87,5.7,90,1602982340,CL
Lovington,32.94,-103.35,78.80000000000001,14,3.6,1,1602982340,US
Geraldton,-28.77,114.6,77.0,29,5.7,0,1602982340,AU
Wallasey,53.42,-3.06,50.0,93,2.1,40,1602982341,GB
Teya,60.38,92.63,41.432000000000016,85,5.16,100,1602982341,RU
Manzanillo,19.05,-104.32,86.0,79,5.1,40,1602982342,MX
Mehamn,71.04,27.85,37.05800000000001,77,5.65,77,1602982342,NO
Huilong,31.81,121.66,69.00800000000001,61,1.34,23,1602982342,CN
Itarema,-2.92,-39.92,78.72800000000007,80,6.26,95,1602982342,BR
Fairbanks,64.84,-147.72,28.994000000000074,39,1.5,75,1602982279,US
Bambari,5.77,20.68,71.11400000000003,90,0.14,70,1602982343,CF
Yumen,40.28,97.2,40.55,55,3.27,0,1602982343,CN
Lorengau,-2.02,147.27,85.22600000000008,69,4.67,2,1602982343,PG
Coyhaique,-45.58,-72.07,46.4,75,3.6,90,1602982343,CL
Rwamagana,-1.95,30.43,62.690000000000026,83,0.88,35,1602982344,RW
Dosso,13.05,3.19,83.066,56,3.55,1,1602982344,NE
Newark,40.74,-74.17,57.2,37,2.1,1,1602982250,US
Merauke,-8.47,140.33,83.73200000000003,63,5.31,4,1602982345,ID
Yashan,22.2,109.94,67.892,78,5.05,94,1602982345,CN
Huarmey,-10.07,-78.15,63.23000000000005,83,3.15,9,1602982345,PE
Novo Aripuanã,-5.12,-60.38,79.10600000000002,77,1.83,58,1602982346,BR
Klaksvík,62.23,-6.59,33.8,67,1.0,90,1602982347,FO
Rawson,-43.3,-65.1,68.43200000000002,31,7.6,0,1602982211,AR
Porto Velho,-8.76,-63.9,82.4,78,1.5,40,1602982348,BR
Ust-Kuyga,70.02,135.6,22.928000000000065,97,2.69,100,1602982348,RU
Aubière,45.75,3.11,46.4,87,0.33,90,1602982348,FR
Kompaniyivka,48.25,32.21,49.946000000000055,86,3.76,0,1602982349,UA
Tairua,-37.02,175.85,61.483999999999995,53,2.04,47,1602982350,NZ
Aasiaat,68.71,-52.87,37.004000000000055,83,10.64,69,1602982350,GL
Rupert,42.62,-113.68,62.6,39,5.7,1,1602982350,US
Vallenar,-28.57,-70.76,62.83399999999999,50,0.74,0,1602982140,CL
Waipawa,-41.41,175.52,62.00600000000003,72,6.7,4,1602982350,NZ
San Juan,-31.54,-68.54,81.86000000000008,24,5.69,0,1602982351,AR
Altay,47.87,88.12,38.174000000000014,60,2.94,17,1602982351,CN
Puerto Escondido,15.85,-97.07,84.2,66,1.99,90,1602982351,MX
Puri,19.8,85.85,80.11400000000003,81,4.31,87,1602982351,IN
Hobe Sound,27.06,-80.14,82.4,61,5.7,40,1602982351,US
Buala,-8.14,159.59,86.32400000000001,68,2.23,67,1602982352,SB
Tahoua,14.89,5.27,80.6,69,2.39,55,1602982352,NE
Numāligarh,26.63,93.75,76.35200000000009,93,1.09,23,1602982352,IN
Moshi,-3.35,37.33,66.70400000000006,75,0.1,37,1602982352,TZ
Ozinki,51.18,49.68,41.27000000000006,64,5.59,76,1602982353,RU
Kieta,-6.22,155.63,84.99199999999999,68,2.19,100,1602982353,PG
Lompoc,34.64,-120.46,78.80000000000001,47,5.1,1,1602982353,US
Udachny,66.42,112.4,5.0,92,2.0,0,1602982353,RU
Kirakira,-10.45,161.92,84.83000000000004,72,3.39,2,1602982353,SB
Awjilah,29.11,21.29,79.808,23,6.17,0,1602982354,LY
Ponta do Sol,32.67,-17.1,69.80000000000001,68,8.2,40,1602982354,PT
Cap Malheureux,-19.98,57.61,69.00800000000001,82,1.34,24,1602982354,MU
Esim,4.87,-2.24,77.16200000000006,89,2.95,100,1602982354,GH
Port Keats,-14.25,129.55,89.31200000000007,58,2.66,62,1602982354,AU
Soyo,-6.13,12.37,77.32400000000001,83,3.66,100,1602982355,AO
Norman Wells,65.28,-126.83,23.0,57,2.6,5,1602982355,CA
Leningradskiy,69.38,178.42,25.412000000000056,89,3.57,0,1602982356,RU
Båtsfjord,70.63,29.72,35.564000000000036,82,5.04,98,1602982356,NO
Krasnosel'kup,65.7,82.47,21.52400000000001,97,2.94,92,1602982356,RU
Sabha,27.04,14.43,75.50600000000003,19,4.29,0,1602982357,LY
Cedar City,37.68,-113.06,75.2,9,4.1,1,1602982186,US
Tiarei,-17.53,-149.33,82.4,74,7.7,75,1602982357,PF
Siocon,7.71,122.14,75.56000000000009,92,0.76,100,1602982357,PH
Kamenka,51.32,42.77,51.00800000000001,71,9.06,96,1602982358,RU
Havøysund,71.0,24.66,26.6,100,2.6,100,1602982358,NO
Province of Trapani,37.83,12.67,59.0,82,2.1,40,1602982358,IT
Ngunguru,-35.62,174.5,69.00800000000001,62,2.24,23,1602982359,NZ
Wé,-20.92,167.26,75.81200000000007,57,4.62,0,1602982359,NC
Severnoye,56.35,78.36,31.460000000000083,91,7.18,48,1602982359,RU
Atambua,-9.11,124.89,87.27800000000008,46,1.23,74,1602982149,ID
Bathsheba,13.22,-59.52,80.6,83,3.6,20,1602982360,BB
San Juan,26.19,-98.16,80.99600000000005,54,5.1,90,1602982360,US
Koboko,3.41,30.96,64.058,93,1.62,96,1602982360,UG
Tokur,53.13,132.9,17.40200000000008,94,6.53,100,1602982361,RU
Ambunti,-4.24,142.84,88.7,58,1.52,100,1602982361,PG
Grand Gaube,-20.01,57.66,69.00800000000001,82,1.34,26,1602982361,MU
Sinnamary,5.38,-52.95,81.23000000000005,80,5.13,11,1602982361,GF
Masasi,-10.72,38.8,70.28600000000007,82,1.34,0,1602982362,TZ
Zyryanovsk,49.74,84.27,38.102000000000075,73,0.62,100,1602982362,KZ
Butembo,0.15,29.28,56.80400000000006,100,0.49,94,1602982362,CD
Cape Canaveral,28.41,-80.6,77.0,88,3.1,40,1602982362,US
Fortuna,40.6,-124.16,62.99600000000005,87,5.1,1,1602982363,US
Vichuga,57.21,41.93,34.538000000000046,88,4.61,100,1602982363,RU
Bowen,-20.02,148.23,82.4,39,3.6,40,1602982363,AU
Rognac,43.49,5.23,51.00800000000001,87,2.6,0,1602982363,FR
Lebu,-37.62,-73.65,51.40400000000005,92,2.79,35,1602982363,CL
Beloha,-25.17,45.05,65.066,81,6.5,23,1602982363,MG
Videira,-27.01,-51.15,55.92200000000004,82,2.0,100,1602982364,BR
Kayerkan,69.35,87.76,26.6,92,4.0,87,1602982364,RU
Río Gallegos,-51.62,-69.22,51.8,62,9.3,41,1602982163,AR
Bontang,0.13,117.5,80.18600000000006,84,2.32,100,1602982205,ID
Hobyo,5.35,48.53,79.34000000000003,78,8.67,21,1602982365,SO
Valpaços,41.61,-7.31,51.33200000000002,77,0.7,98,1602982365,PT
Tabou,4.42,-7.35,77.21600000000001,91,3.0,97,1602982366,CI
Chui,-33.7,-53.46,61.57400000000001,83,3.78,100,1602982366,UY
Paamiut,61.99,-49.67,40.1,86,3.35,20,1602982366,GL
Suba,10.84,121.01,83.78600000000007,76,6.28,100,1602982366,PH
Tura,64.28,100.25,23.54000000000002,97,2.11,100,1602982367,RU
San Patricio,19.22,-104.7,86.0,79,5.1,40,1602982367,MX
Reynoldsburg,39.95,-82.81,55.400000000000006,32,2.6,90,1602982367,US
Celestún,20.87,-90.4,79.84400000000008,85,6.32,3,1602982368,MX
Areosa,41.72,-8.86,60.00800000000001,100,3.6,20,1602982368,PT
Westport,53.8,-9.52,48.00200000000008,91,1.94,62,1602982368,IE
Yabēlo,4.88,38.08,58.87400000000001,97,2.02,99,1602982369,ET
Carpinteria,34.4,-119.52,80.00600000000003,54,0.45,0,1602982266,US
Huambo,-12.78,15.74,63.5,71,1.02,0,1602982369,AO
São Filipe,14.9,-24.5,79.88000000000005,81,1.16,24,1602982369,CV
Mocuba,-16.84,36.99,67.82000000000006,83,0.56,81,1602982369,MZ
Los Llanos de Aridane,28.66,-17.92,68.0,77,3.06,40,1602982370,ES
Andenes,69.31,16.12,39.2,80,9.8,40,1602982370,NO
Otukpo,7.19,8.13,69.89000000000001,92,0.9,80,1602982371,NG
Salym,60.06,71.48,28.706000000000028,97,7.36,100,1602982371,RU
Pingdu,36.78,119.95,57.2,67,1.26,0,1602982372,CN
Dingle,52.14,-10.27,51.74600000000005,83,6.0,74,1602982372,IE
Thaba-Tseka,-29.52,28.61,53.852000000000075,38,1.64,0,1602982372,LS
Kashgar,39.45,75.98,50.0,39,4.0,0,1602982372,CN
Tucuruí,-3.77,-49.67,79.17800000000007,74,1.06,7,1602982372,BR
Buchanan,5.88,-10.05,77.27000000000007,91,3.32,99,1602982373,LR
Torbay,47.67,-52.73,50.0,100,4.6,90,1602982373,CA
Hūn,29.13,15.95,68.19800000000004,90,4.9,18,1602982373,LY
Tomatlán,19.93,-105.25,78.7100000000001,84,1.22,25,1602982373,MX
Nouadhibou,20.93,-17.03,77.0,57,7.2,0,1602982373,MR
Lashio,22.93,97.75,66.38000000000005,97,0.31,100,1602982374,MM
Taltal,-25.4,-70.48,59.09000000000002,71,2.08,10,1602982088,CL
Kimbe,-5.55,150.14,87.74600000000005,63,2.2,78,1602982374,PG
Port Hawkesbury,45.62,-61.35,62.99600000000005,100,5.7,90,1602982374,CA
Krasnooktyabrskiy,44.93,38.37,57.992,93,1.0,65,1602982375,RU
Formosa do Rio Preto,-11.05,-45.19,79.39400000000008,30,1.73,33,1602982375,BR
Sault Ste. Marie,46.52,-84.33,42.8,87,7.2,90,1602982375,CA
Yerbogachën,61.28,108.01,24.494000000000074,97,2.31,72,1602982376,RU
Muisne,0.6,-80.03,75.092,86,4.87,99,1602982376,EC
Maua,0.23,37.94,59.95400000000005,100,3.54,63,1602982376,KE
Haines Junction,60.75,-137.51,23.61200000000006,73,0.66,0,1602982377,CA
Fort Nelson,58.81,-122.7,26.6,49,2.1,20,1602982377,CA
Belaya Gora,68.53,146.42,22.28000000000004,97,5.2,99,1602982377,RU
Waterloo,50.71,4.4,44.99600000000005,88,2.32,91,1602982377,BE
Thongwa,16.76,96.53,78.80000000000001,94,1.5,75,1602982378,MM
Kavieng,-2.57,150.8,84.21800000000009,73,3.35,7,1602982378,PG
Chītāpur,17.12,77.08,73.07600000000009,84,1.36,48,1602982378,IN
Carballo,43.21,-8.69,55.004000000000055,100,1.0,75,1602982378,ES
Pangody,65.85,74.49,23.45,95,8.9,100,1602982379,RU
Shaunavon,49.65,-108.42,18.32000000000006,91,5.15,34,1602982379,CA
Cascais,38.7,-9.42,60.00800000000001,96,3.13,95,1602982120,PT
Irmo,34.09,-81.18,60.8,51,2.6,1,1602982379,US
Fort Smith,35.39,-94.4,66.2,37,4.6,90,1602982380,US
Burns Lake,54.23,-125.75,31.58600000000007,91,1.5,60,1602982380,CA
Kaitangata,-46.28,169.85,53.00600000000003,71,0.45,89,1602982381,NZ
Qaqortoq,60.72,-46.03,37.4,74,0.5,79,1602982381,GL
Kīhei,20.79,-156.47,91.4,49,5.1,40,1602982381,US
Suffolk,40.87,-72.8,44.6,81,1.16,1,1602982382,US
San Vicente,15.3,120.65,78.80000000000001,83,1.0,75,1602982382,PH
Sylvania,41.72,-83.71,57.2,33,3.6,90,1602982382,US
Dwārka,22.24,68.97,82.90400000000005,79,5.42,2,1602982382,IN
Slatina,45.7,17.7,44.00600000000003,96,0.66,19,1602982382,HR
Stornoway,58.21,-6.39,46.4,75,2.6,100,1602982383,GB
Russell,-35.26,174.12,69.00800000000001,62,2.24,0,1602982383,NZ
Mankāchar,25.53,89.87,80.09600000000006,80,1.46,19,1602982146,IN
Grindavik,63.84,-22.43,44.6,93,9.3,75,1602982384,IS
Riyadh,24.69,46.72,62.6,29,1.5,0,1602982222,SA
Manoel Urbano,-8.84,-69.26,78.69200000000001,64,1.13,99,1602982384,BR
Titay,7.81,122.53,74.57000000000006,94,1.68,100,1602982384,PH
Toamasina,-18.17,49.38,66.2,93,0.5,20,1602982385,MG
Komsomol'skiy,43.98,46.7,54.860000000000085,96,1.47,11,1602982385,RU
Lázaro Cárdenas,17.96,-102.2,81.30200000000008,81,2.84,94,1602982385,MX
Tual,-5.67,132.75,80.74400000000009,81,7.36,50,1602982385,ID
Karatuzskoye,53.61,92.87,39.092,76,3.11,95,1602982386,RU
Karratha,-20.74,116.85,76.04600000000005,51,6.43,1,1602982386,AU
Naze,28.37,129.48,75.2,100,5.7,75,1602982387,JP
Stolin,51.89,26.85,40.01000000000008,92,4.7,100,1602982387,BY
Constitución,-35.33,-72.42,50.018000000000086,84,4.39,1,1602982387,CL
Pingzhuang,42.04,119.29,51.42200000000004,42,1.4,0,1602982387,CN
Port Augusta,-32.5,137.77,60.00800000000001,54,5.7,90,1602982388,AU
Caconda,-13.73,15.07,65.71400000000003,71,0.84,22,1602982388,AO
Binghamton,42.1,-75.92,44.00600000000003,69,1.81,0,1602982337,US
Ulaangom,49.98,92.07,32.306000000000026,92,1.26,7,1602982388,MN
Mossoró,-5.19,-37.34,77.16200000000006,67,4.65,0,1602982156,BR
Khurba,50.41,136.88,43.19600000000005,66,4.97,1,1602982389,RU
Portland,-38.33,141.6,53.20400000000005,63,3.13,100,1602982389,AU
Kytmanovo,53.46,85.45,49.33399999999999,50,6.14,100,1602982390,RU
Barra de Tecoanapa,16.52,-98.75,81.734,83,3.55,4,1602982390,MX
Nizhniy Odes,63.64,54.86,27.59000000000002,98,3.26,53,1602982390,RU
Krasnyy Yar,46.53,48.35,57.2,87,3.0,75,1602982391,RU
Stromness,58.97,-3.3,44.6,65,4.1,95,1602982391,GB
Shubarshi,48.59,57.19,49.91000000000008,81,2.95,0,1602982391,KZ
Pevek,69.7,170.31,28.07600000000009,98,3.56,100,1602982391,RU
Oistins,13.07,-59.53,80.6,83,3.6,20,1602982116,BB
Sukaraja,-7.45,108.19,77.05400000000006,79,1.51,52,1602982392,ID
Salinópolis,-0.61,-47.36,79.73600000000008,78,5.48,92,1602982392,BR
Acri,39.49,16.38,51.00800000000001,96,2.35,1,1602982392,IT
Kholodnyy,62.72,147.95,20.102000000000075,85,1.8,0,1602982393,RU
Uttaradit,17.67,100.5,73.4,94,1.12,75,1602982393,TH
Curup,-3.47,102.53,72.03200000000001,81,0.31,99,1602982393,ID
Kaduqli,11.02,29.72,75.57800000000006,64,0.9,67,1602982393,SD
Sa Kaeo,13.75,102.33,71.47400000000002,97,1.22,100,1602982393,TH
Benin City,6.33,5.63,72.30200000000008,98,0.39,100,1602982394,NG
Xifeng,42.74,124.72,45.96800000000009,53,2.15,0,1602982394,CN
Champotón,19.35,-90.72,78.80000000000001,83,5.1,75,1602982394,MX
Rio Grande,-32.03,-52.1,64.99400000000009,90,5.42,99,1602982221,BR
