City,Latitude,Longitude,Max Temperature,Humidity,Windspeed,Cloudiness,Date,Country
Saint Paul Harbor,57.79,-152.41,46.4,61,2.1,90,1602974083,US
Arlit,18.74,7.39,90.80600000000004,12,3.04,0,1602974132,NE
New Norfolk,-42.78,147.06,51.00800000000001,96,3.13,59,1602974132,AU
Plettenberg Bay,-34.05,23.37,59.73800000000004,87,4.19,96,1602974133,ZA
Clyde River,70.47,-68.59,37.4,74,7.7,75,1602974133,CA
Kantunilkín,21.09,-87.45,84.2,79,3.1,40,1602974133,MX
Singaparna,-7.35,108.11,71.06000000000009,90,1.0,85,1602974134,ID
Nowy Targ,49.48,20.03,39.00200000000008,86,6.7,90,1602974134,PL
Hithadhoo,-0.6,73.08,82.94000000000003,77,9.16,52,1602974134,MV
Rikitea,-23.12,-134.97,74.2100000000001,80,9.13,100,1602974134,PF
Buchanan,5.88,-10.05,78.80000000000001,94,2.1,75,1602974134,LR
Jalu,29.03,21.55,81.03200000000001,23,3.9,0,1602974135,LY
Hermanus,-34.42,19.23,55.004000000000055,92,2.09,32,1602974135,ZA
Port Hawkesbury,45.62,-61.35,62.6,100,6.2,90,1602974135,CA
Bredasdorp,-34.53,20.04,55.400000000000006,93,1.5,41,1602974135,ZA
Naze,28.37,129.48,73.4,94,4.6,75,1602974135,JP
Paamiut,61.99,-49.67,40.91000000000008,85,3.14,99,1602974136,GL
Thompson,55.74,-97.86,30.2,92,2.1,90,1602974136,CA
Ushuaia,-54.8,-68.3,42.8,75,3.6,75,1602974136,AR
Yellowknife,62.46,-114.35,26.6,79,6.2,90,1602973879,CA
Saskylakh,71.92,114.08,14.018000000000086,96,2.75,98,1602974137,RU
Dikson,73.51,80.55,15.944000000000074,95,10.07,3,1602973887,RU
Albany,-35.02,117.89,48.2,100,2.1,90,1602974137,AU
Severnoye,56.35,78.36,31.838000000000044,90,7.93,54,1602974137,RU
Batagay,67.63,134.63,15.728000000000065,96,1.76,100,1602974137,RU
Port Alfred,-33.59,26.89,64.184,85,5.33,94,1602974138,ZA
Carnarvon,-24.87,113.63,68.0,82,6.2,90,1602974138,AU
Noblesville,40.05,-86.01,57.992,36,1.34,100,1602973895,US
Pevek,69.7,170.31,27.80600000000003,98,5.29,97,1602974138,RU
Atuona,-9.8,-139.03,78.53000000000004,72,6.44,0,1602973915,PF
Fort Nelson,58.81,-122.7,28.4,46,2.6,20,1602974139,CA
Turaif,31.67,38.66,64.4,34,2.1,0,1602974139,SA
East London,-33.02,27.91,66.84800000000003,70,4.12,87,1602974139,ZA
Busselton,-33.65,115.33,57.992,57,4.52,0,1602974139,AU
Hobart,-42.88,147.33,51.00800000000001,76,4.1,75,1602974055,AU
Bluff,-46.6,168.33,51.00800000000001,71,3.13,92,1602973888,NZ
Aykhal,66.0,111.5,5.0,92,2.0,0,1602974141,RU
Gander,48.97,-54.59,57.2,93,8.2,90,1602974141,CA
Chicama,-7.84,-79.15,66.542,72,3.0,36,1602974141,PE
Ribeira Grande,38.52,-28.7,63.194000000000074,63,6.73,88,1602974142,PT
Coyhaique,-45.58,-72.07,48.2,87,2.1,75,1602974142,CL
Beringovskiy,63.05,179.32,37.13000000000004,76,1.58,96,1602974143,RU
Kavieng,-2.57,150.8,83.66000000000008,71,2.99,100,1602974143,PG
Talara,-4.58,-81.27,64.79600000000005,86,5.0,35,1602974143,PE
Iberia,-11.35,-69.58,83.26400000000004,50,0.56,68,1602974143,PE
Leningradskiy,69.38,178.42,25.808000000000003,90,3.78,0,1602974143,RU
Punta Arenas,-53.15,-70.92,44.6,87,5.1,100,1602974068,CL
Nouakchott,18.09,-15.98,84.2,66,2.6,25,1602974144,MR
Pisco,-13.7,-76.22,66.2,72,9.3,4,1602974144,PE
Sept-Îles,50.2,-66.38,46.99400000000007,100,7.2,90,1602974144,CA
‘Ewa Beach,21.32,-158.01,84.2,74,3.1,1,1602974145,US
Mao,14.12,15.31,91.058,13,3.72,1,1602974145,TD
Kysyl-Syr,63.9,122.76,9.482000000000017,95,2.63,97,1602974145,RU
Georgetown,-7.93,-14.42,74.04800000000003,75,6.76,79,1602974145,SH
Riyadh,24.69,46.72,66.2,25,1.0,0,1602973874,SA
Comodoro Rivadavia,-45.87,-67.5,66.2,34,2.6,100,1602973964,AR
Korla,41.76,86.15,45.41000000000008,52,0.63,16,1602973951,CN
Tabasco,18.0,-92.67,87.80000000000001,62,2.1,40,1602974146,MX
Cidreira,-30.18,-50.21,67.316,81,9.41,55,1602974146,BR
Eenhana,-17.47,16.33,80.6,18,1.5,0,1602974146,NA
Cabo San Lucas,22.89,-109.91,89.6,70,3.6,40,1602974147,MX
Cap Malheureux,-19.98,57.61,69.99800000000002,84,0.89,38,1602974147,MU
Port Lincoln,-34.73,135.87,54.104000000000056,63,4.57,43,1602974148,AU
Kahului,20.89,-156.47,91.4,46,3.6,40,1602973893,US
Jamestown,-15.94,-5.72,60.674000000000014,96,7.26,99,1602974148,SH
Fairbanks,64.84,-147.72,26.99600000000005,38,1.5,75,1602974133,US
Rudnogorsk,57.26,103.75,36.69800000000002,98,2.29,100,1602974149,RU
Kavaratti,10.57,72.64,80.924,80,4.6,94,1602974149,IN
Souillac,-20.52,57.52,71.6,83,1.5,20,1602974149,MU
Reinosa,43.0,-4.14,51.998000000000026,93,0.45,17,1602974150,ES
Kapaa,22.08,-159.32,82.00400000000005,100,4.74,75,1602974150,US
Mahébourg,-20.41,57.7,71.6,83,1.5,20,1602974150,MU
Camamu,-13.94,-39.1,74.28200000000001,88,2.85,18,1602974151,BR
Aginskoye,51.1,114.53,29.42600000000009,92,3.63,75,1602974151,RU
Salalah,17.02,54.09,73.4,64,1.5,0,1602974151,OM
Mackay,-21.15,149.2,75.99199999999999,69,2.6,47,1602973856,AU
Abu Kamal,34.45,40.92,68.66600000000001,31,2.74,0,1602974152,SY
Hilo,19.73,-155.09,89.6,52,5.7,1,1602974152,US
Paraiso,18.4,-93.23,87.80000000000001,62,5.25,40,1602974152,MX
Vila Franca do Campo,37.72,-25.43,60.8,87,2.6,75,1602974153,PT
Cape Town,-33.93,18.42,59.0,87,3.1,20,1602973915,ZA
Vaini,-21.2,-175.2,78.80000000000001,83,5.7,40,1602974153,TO
São Gabriel da Cachoeira,-0.13,-67.09,79.41200000000006,80,0.91,81,1602974153,BR
Juneau,58.3,-134.42,39.2,35,3.6,40,1602974110,US
Upernavik,72.79,-56.15,35.81600000000001,95,9.4,100,1602974139,GL
Grindavik,63.84,-22.43,44.6,100,5.7,90,1602973891,IS
Namatanai,-3.67,152.43,82.41800000000009,74,1.45,100,1602974155,PG
Ciudad Bolivar,8.12,-63.55,85.17200000000004,62,2.32,89,1602974091,VE
Bantry,51.68,-9.45,51.8,81,5.7,75,1602974155,IE
Ormara,25.21,64.64,80.924,28,7.59,4,1602974155,PK
Butaritari,3.07,172.79,82.58000000000004,78,9.42,13,1602974155,KI
Rawson,-43.3,-65.1,70.05200000000008,29,7.55,24,1602973909,AR
Ambon City,-3.7,128.18,75.2,94,3.1,40,1602974156,ID
Lüderitz,-26.65,15.16,65.76800000000009,45,7.97,0,1602973980,NA
Bethel,41.37,-73.41,50.0,61,0.53,1,1602974157,US
Sawtell,-30.38,153.1,75.2,60,0.5,88,1602974157,AU
Kalmunai,7.42,81.82,78.33200000000002,74,1.43,100,1602974157,LK
Cherskiy,68.75,161.3,22.33399999999999,94,5.92,75,1602974158,RU
Yumen,40.28,97.2,34.772000000000034,71,3.08,0,1602974158,CN
Gatesville,31.44,-97.74,80.6,54,8.7,20,1602974158,US
Taoudenni,22.68,-3.98,84.79400000000007,21,3.93,0,1602974158,ML
Nikolskoye,59.7,30.79,37.004000000000055,80,3.0,75,1602974159,RU
La Palma,8.4,-78.15,78.20600000000003,92,1.1,100,1602974159,PA
Khatanga,71.97,102.5,3.9020000000000756,90,3.64,15,1602974159,RU
Chokurdakh,70.63,147.92,24.728000000000065,98,1.72,100,1602974085,RU
Avarua,-21.21,-159.78,78.80000000000001,69,7.2,84,1602974160,CK
Dvinskoy Bereznik,62.86,42.71,35.13200000000002,91,4.4,100,1602974160,RU
Svetlogorsk,54.94,20.15,41.0,86,3.0,75,1602974160,RU
Arraial do Cabo,-22.97,-42.03,71.6,73,1.5,20,1602974161,BR
Urengoy,65.97,78.37,24.044000000000075,98,5.48,90,1602974161,RU
Barrow,71.29,-156.79,19.4,73,5.7,1,1602974102,US
Loukhi,66.08,33.04,35.294000000000075,96,5.48,100,1602974161,RU
Kīhei,20.79,-156.47,91.4,46,3.6,40,1602974162,US
Sørland,67.67,12.69,43.7,62,15.43,100,1602974162,NO
Qaanaaq,77.48,-69.36,34.682000000000016,89,4.11,100,1602974140,GL
Sauga,58.43,24.5,46.99400000000007,72,6.26,97,1602974163,EE
Bilibino,68.05,166.44,22.946000000000048,96,1.46,99,1602973961,RU
Wittingen,52.73,10.74,42.998000000000026,100,1.0,35,1602974163,DE
Ritchie,-29.04,24.6,73.4,17,1.5,10,1602974164,ZA
Coquimbo,-29.95,-71.34,55.400000000000006,87,3.6,90,1602973933,CL
Chui,-33.7,-53.46,63.806000000000026,79,4.7,99,1602974164,UY
Pacocha,-17.58,-71.33,60.98000000000005,81,1.49,45,1602974164,PE
Romny,50.73,129.29,28.49000000000002,77,6.4,0,1602974164,RU
Mar del Plata,-38.0,-57.56,64.4,82,2.6,16,1602974165,AR
Kashmor,28.43,69.58,73.77800000000008,20,1.21,0,1602974165,PK
Abalak,15.45,6.28,91.09400000000008,13,3.31,0,1602974165,NE
Ostrovnoy,68.05,39.51,31.76600000000001,90,0.42,2,1602974165,RU
Aden,12.78,45.04,83.58800000000005,69,4.75,0,1602974141,YE
Port Hedland,-20.32,118.57,68.0,88,3.1,0,1602974166,AU
Ambunti,-4.24,142.84,83.46200000000006,71,0.15,46,1602974166,PG
Victoria,-4.62,55.45,80.6,78,1.0,40,1602974166,SC
Hasaki,35.73,140.83,53.99600000000005,93,3.6,75,1602974166,JP
São Filipe,14.9,-24.5,80.09600000000006,81,0.81,16,1602974167,CV
Zalesovo,53.99,84.74,48.236000000000075,53,6.62,100,1602974167,RU
Sisimiut,66.94,-53.67,38.62400000000001,83,12.39,100,1602973867,GL
Norman Wells,65.28,-126.83,23.0,57,3.1,5,1602974167,CA
Tiksi,71.69,128.87,18.176000000000087,97,4.81,100,1602974167,RU
Krasnosel'kup,65.7,82.47,23.27000000000006,97,3.7,97,1602973883,RU
Saldanha,-33.01,17.94,57.2,82,2.6,38,1602974168,ZA
Salekhard,66.53,66.6,23.23399999999999,95,4.07,100,1602974168,RU
Husavik,66.04,-17.34,46.4,70,8.7,40,1602974168,IS
Torbay,47.67,-52.73,51.00800000000001,100,4.1,90,1602973931,CA
Bambous Virieux,-20.34,57.76,71.6,83,1.5,20,1602974169,MU
Yanam,16.73,82.22,76.49600000000005,94,1.4,100,1602974169,IN
La Unión,37.62,-0.88,59.0,82,1.9,19,1602974148,ES
Kaeo,-35.1,173.78,64.99400000000009,56,3.13,0,1602974169,NZ
Maningrida,-12.07,134.27,81.5,66,2.16,96,1602974170,AU
Buta,2.79,24.73,70.21400000000003,95,0.43,100,1602974170,CD
Severo-Kuril'sk,50.68,156.12,46.09400000000007,64,5.79,44,1602973934,RU
Kruisfontein,-34.0,24.73,60.00800000000001,90,0.45,99,1602974171,ZA
Tuktoyaktuk,69.45,-133.04,19.4,73,4.1,5,1602973917,CA
Nanortalik,60.14,-45.24,39.30800000000001,83,1.29,20,1602974171,GL
Ketchikan,55.34,-131.65,48.2,75,2.1,90,1602974110,US
Pudozh,61.81,36.53,37.67000000000006,84,4.08,99,1602974172,RU
Half Moon Bay,37.46,-122.43,82.4,33,2.6,1,1602974172,US
Csurgó,46.25,17.1,46.4,93,0.88,19,1602974172,HU
Zhengjiatun,43.51,123.51,39.541999999999994,67,3.01,0,1602974173,CN
At-Bashi,41.17,75.81,36.608000000000004,72,0.36,0,1602974173,KG
Touros,-5.2,-35.46,78.80000000000001,74,4.6,1,1602973908,BR
Catherinas Lust,6.4,-57.6,80.816,78,4.93,96,1602974173,GY
Ugoofaaru,5.67,73.0,82.31000000000009,75,6.42,22,1602974174,MV
Brownwood,31.71,-98.99,84.2,37,7.2,1,1602974174,US
Osmeña,10.52,119.93,80.56400000000004,82,4.45,100,1602974174,PH
São Raimundo Nonato,-9.02,-42.7,82.49000000000002,23,0.72,49,1602974174,BR
Lodja,-3.48,23.43,70.41200000000006,95,0.28,18,1602974154,CD
Paciran,-6.88,112.38,78.60200000000009,77,3.8,97,1602974175,ID
Longyearbyen,78.22,15.64,19.4,79,2.6,20,1602973914,SJ
Ilulissat,69.22,-51.1,37.4,93,1.5,100,1602974175,GL
Hamilton,32.29,-64.78,77.0,78,4.1,20,1602974081,BM
Dingle,52.14,-10.27,51.92600000000009,82,7.17,100,1602974176,IE
Athabasca,54.72,-113.29,26.06000000000008,79,6.17,76,1602974176,CA
Bathsheba,13.22,-59.52,80.6,83,4.1,20,1602974176,BB
Shimanovsk,52.0,127.7,27.446000000000048,79,5.49,0,1602973928,RU
Griffith,-34.28,146.03,55.400000000000006,82,3.6,0,1602974177,AU
Pimentel,-6.84,-79.93,69.80000000000001,64,9.3,76,1602973933,PE
Kloulklubed,7.04,134.26,80.6,83,2.1,90,1602974177,PW
Saltillo,25.42,-101.0,80.6,36,4.1,5,1602974178,MX
Port Elizabeth,-33.92,25.57,60.8,87,5.7,94,1602974122,ZA
Suntar,62.14,117.63,14.27000000000006,96,0.9,0,1602974178,RU
Puerto Ayora,-0.74,-90.35,77.0,65,9.3,20,1602974179,EC
Bontang,0.13,117.5,78.33200000000002,87,3.38,100,1602974179,ID
Faanui,-16.48,-151.75,79.23200000000003,78,2.39,52,1602974179,PF
Te Anau,-45.42,167.72,53.76200000000006,72,0.88,100,1602974179,NZ
Klaksvík,62.23,-6.59,33.8,66,1.0,97,1602974180,FO
Komsomol'skiy,43.98,46.7,56.46200000000006,97,2.21,2,1602974180,RU
Kirakira,-10.45,161.92,83.4260000000001,74,3.24,79,1602973949,SB
Omboué,-1.57,9.26,76.78399999999999,86,2.55,100,1602974182,GA
Okha,53.57,142.95,38.46200000000006,76,4.75,9,1602974182,RU
Nantucket,41.28,-70.1,55.400000000000006,47,5.1,1,1602973931,US
Porto Walter,-8.27,-72.74,77.12600000000009,86,1.23,63,1602974182,BR
Coahuayana Viejo,18.73,-103.68,82.4,74,5.1,75,1602974138,MX
Iqaluit,63.75,-68.51,32.0,95,2.6,75,1602974183,CA
Saint-Pierre,46.77,-56.17,51.8,100,7.2,90,1602974069,PM
Talnakh,69.49,88.4,26.6,92,7.0,40,1602974183,RU
Täby,59.44,18.07,46.4,70,4.1,100,1602974183,SE
Harper,4.38,-7.72,77.07200000000003,90,3.77,66,1602974184,LR
Kamenka,51.32,42.77,53.00600000000003,68,0.45,100,1602973915,RU
Lompoc,34.64,-120.46,84.99199999999999,30,7.2,1,1602973890,US
Lorengau,-2.02,147.27,84.34400000000008,71,4.34,61,1602974184,PG
Beloha,-25.17,45.05,65.13800000000005,81,6.94,37,1602974184,MG
Saint George,32.38,-64.68,77.0,78,4.1,20,1602974185,BM
San Juan de los Morros,9.91,-67.35,72.33800000000005,92,0.66,86,1602974185,VE
Kolokani,13.57,-8.03,81.842,35,0.4,18,1602974185,ML
Klyuchi,52.27,79.17,54.95,49,7.33,100,1602974185,RU
Krasnoborsk,61.56,45.93,32.018000000000086,96,3.71,74,1602974185,RU
Ponta do Sol,17.2,-25.09,80.6,78,6.2,40,1602974186,CV
San Jorge,11.46,-85.8,84.2,79,6.54,40,1602974186,NI
Totskoye,52.52,52.76,37.202000000000076,76,2.11,62,1602974186,RU
Burgeo,47.62,-57.62,57.056000000000026,95,10.47,100,1602973968,CA
San Patricio,19.22,-104.7,89.6,66,5.1,20,1602974187,MX
Novaya Igirma,57.13,103.91,38.75,93,2.69,100,1602974187,RU
Lengshuitan,26.41,111.6,57.434,89,1.93,97,1602974187,CN
Provideniya,64.38,-173.3,38.768000000000086,88,1.2,63,1602974187,RU
Tasiilaq,65.61,-37.64,33.8,86,6.2,28,1602974187,GL
Uarini,-2.99,-65.11,82.4,83,1.5,20,1602974188,BR
Castro,-42.47,-73.77,53.99600000000005,81,7.2,20,1602974188,CL
Victoria,28.78,-96.95,80.99600000000005,69,4.6,90,1602974189,US
Westport,-41.75,171.6,55.86800000000009,82,3.42,100,1602974189,NZ
Alice Springs,-23.7,133.88,66.2,72,5.1,94,1602974189,AU
Muhos,64.81,25.99,37.99400000000007,100,2.6,75,1602974189,FI
Yamada,39.47,141.95,57.254000000000055,64,1.48,1,1602974189,JP
Gladstone,-23.85,151.25,75.2,60,1.5,75,1602974190,AU
Mgandu,-5.95,34.13,60.26000000000008,69,3.4,4,1602974190,TZ
Tuatapere,-46.13,167.68,51.00800000000001,71,3.13,89,1602974190,NZ
Natal,-5.79,-35.21,78.80000000000001,74,4.6,0,1602974190,BR
Siteki,-26.45,31.95,63.104000000000056,89,1.62,1,1602974191,SZ
Huilong,31.81,121.66,64.99400000000009,72,2.71,2,1602974191,CN
Haines Junction,60.75,-137.51,24.98000000000004,71,0.85,0,1602974192,CA
Turukhansk,65.82,87.98,27.23000000000004,96,5.97,100,1602974192,RU
Medvedok,57.39,50.04,30.182000000000016,96,1.5,0,1602974192,RU
Chegdomyn,51.12,133.02,24.890000000000022,88,4.51,63,1602974192,RU
Pozo Colorado,-23.49,-58.8,83.35400000000006,55,0.68,93,1602974192,PY
Palamós,41.85,3.13,51.00800000000001,100,1.0,20,1602974193,ES
Katangli,51.71,143.23,42.27800000000006,74,6.29,83,1602974193,RU
Ajdabiya,30.76,20.23,77.46800000000009,27,2.61,76,1602974193,LY
Nuevo Imperial,-13.08,-76.32,63.53600000000007,78,2.52,20,1602974193,PE
Skibbereen,51.55,-9.27,51.8,81,5.7,75,1602974194,IE
Kaitangata,-46.28,169.85,53.22200000000004,62,2.2,29,1602974067,NZ
Toamasina,-18.17,49.38,68.0,94,1.0,40,1602974194,MG
Colares,38.8,-9.45,60.998000000000026,95,2.88,14,1602974195,PT
Sambava,-14.27,50.17,71.49199999999999,78,3.54,34,1602974195,MG
Vizinga,61.07,50.1,29.354000000000052,97,3.07,25,1602974195,RU
Arman',59.7,150.17,32.522000000000034,89,2.0,91,1602974196,RU
Itamaracá,-7.75,-34.83,78.80000000000001,74,6.7,40,1602974196,BR
Hirado,33.36,129.55,60.8,82,5.7,82,1602974196,JP
Dunedin,-45.87,170.5,51.998000000000026,77,2.24,12,1602974017,NZ
Lagoa,39.05,-27.98,62.34800000000003,62,7.0,49,1602974196,PT
Ukholovo,53.79,40.49,39.00200000000008,95,7.61,100,1602974197,RU
Lebu,-37.62,-73.65,53.42000000000006,87,2.73,76,1602973905,CL
Savannah Bight,16.45,-85.85,83.3180000000001,73,4.18,77,1602974197,HN
Camabatela,-8.19,15.38,64.54400000000007,98,0.72,89,1602974197,AO
Kapit,2.02,112.93,75.79400000000007,93,0.37,100,1602974197,MY
Kolda,12.88,-14.95,82.4,94,1.69,38,1602974198,SN
Ushtobe,45.25,77.98,49.280000000000044,48,2.47,0,1602974198,KZ
Seoul,37.57,126.98,42.8,93,0.4,1,1602973934,KR
Venice,27.1,-82.45,86.0,51,6.2,20,1602974198,US
Durango,37.28,-107.88,73.4,11,11.3,1,1602973957,US
Mthatha,-31.59,28.78,57.2,54,1.5,9,1602974199,ZA
Koregaon,18.65,74.08,72.12200000000004,89,2.57,14,1602974199,IN
Yerbogachën,61.28,108.01,23.68399999999999,98,2.16,94,1602974199,RU
Poum,-20.23,164.02,73.56200000000007,75,4.68,13,1602974200,NC
Lys'va,58.11,57.81,31.298000000000023,96,3.33,89,1602974200,RU
Scarborough,11.18,-60.73,82.4,74,3.1,20,1602974201,TT
Provincia di Lecce,40.22,18.17,59.0,100,2.6,75,1602974201,IT
Ambilobe,-13.2,49.05,69.85400000000006,79,1.54,6,1602974201,MG
Florø,61.6,5.03,46.4,64,9.3,39,1602974201,NO
Samarai,-10.62,150.67,80.42000000000007,82,3.88,73,1602974202,PG
Qiongshan,20.01,110.35,73.4,100,7.0,90,1602974202,CN
Sheridan,44.83,-106.92,30.991999999999997,92,2.6,90,1602974108,US
Saint-Ambroise,48.55,-71.33,39.992,80,5.7,75,1602974202,CA
Ampanihy,-24.7,44.75,63.33800000000005,83,5.21,0,1602974203,MG
Aldan,58.6,125.39,14.666000000000007,97,1.56,100,1602974203,RU
Yar-Sale,66.83,70.83,22.748000000000026,95,7.81,100,1602974203,RU
Pajapan,18.25,-94.7,78.80000000000001,83,10.3,90,1602974203,MX
Neiva,2.93,-75.28,83.53399999999999,50,3.01,99,1602974203,CO
Kedrovyy,56.17,91.82,55.400000000000006,37,4.0,100,1602974204,RU
San Cristobal,-0.9,-89.62,77.0,73,6.2,40,1602974204,EC
Bagdarin,54.43,113.6,20.552000000000078,87,1.25,74,1602974204,RU
Rurrenabaque,-14.44,-67.53,89.6,74,0.19,42,1602974204,BO
Dillon,34.42,-79.37,62.6,48,3.1,1,1602974205,US
Karratha,-20.74,116.85,67.51400000000004,74,5.67,7,1602974132,AU
Manokwari,-0.87,134.08,82.76000000000008,70,2.22,100,1602974205,ID
Bay Roberts,47.6,-53.26,53.99600000000005,1,4.43,79,1602974205,CA
Makakilo City,21.35,-158.09,84.2,74,3.1,1,1602973949,US
São João da Barra,-21.64,-41.05,75.2,60,3.1,75,1602974205,BR
Waverley,-39.77,174.63,60.998000000000026,57,2.68,78,1602974206,NZ
Henties Bay,-22.12,14.28,57.992,92,1.34,0,1602974206,NA
Toora-Khem,52.47,96.11,31.118000000000087,93,1.07,100,1602974206,RU
College,64.86,-147.8,26.99600000000005,38,1.5,75,1602974206,US
Bull Savanna,17.89,-77.59,79.142,84,2.35,63,1602974206,JM
Catuday,16.29,119.81,79.46600000000001,83,3.42,22,1602974207,PH
Sarlat-la-Canéda,44.89,1.22,44.99600000000005,100,1.0,27,1602974207,FR
Ankpa,7.37,7.63,70.86200000000005,91,0.11,96,1602974207,NG
Rengasdengklok,-6.16,107.3,78.99800000000002,94,1.3,40,1602974207,ID
Nyurba,63.28,118.33,12.29000000000002,96,1.48,0,1602973954,RU
Atlantic City,39.36,-74.42,57.992,44,1.5,1,1602974208,US
Normandin,48.83,-72.53,39.2,86,1.0,75,1602974131,CA
Tutóia,-2.76,-42.27,79.37600000000009,81,5.54,23,1602974209,BR
Iskateley,67.68,53.15,29.696000000000048,97,3.01,91,1602974210,RU
Koutsouras,35.03,25.95,75.00200000000008,80,0.89,100,1602974210,GR
Puerto Escondido,15.85,-97.07,84.2,70,1.78,75,1602974210,MX
Humaitá,-7.51,-63.02,83.30000000000001,60,0.89,68,1602974210,BR
Bonthe,7.53,-12.51,78.63800000000005,88,2.86,14,1602974211,SL
Madimba,-10.4,40.33,75.2,88,2.1,20,1602974211,TZ
Usinsk,65.99,57.53,26.708000000000006,98,4.57,42,1602974211,RU
Hearst,49.68,-83.67,35.13200000000002,85,1.84,100,1602974212,CA
‘Āhuimanu,21.44,-157.84,84.2,62,4.6,40,1602974212,US
Lerwick,60.15,-1.15,41.0,80,4.1,100,1602974212,GB
Lavrentiya,65.58,-171.0,38.87600000000009,87,2.19,76,1602974212,RU
Springbok,-29.66,17.89,61.141999999999996,36,1.88,0,1602974213,ZA
Omsukchan,62.53,155.8,24.890000000000022,81,3.01,100,1602973988,RU
Quang Ngai,15.12,108.8,75.05600000000004,89,1.36,96,1602974213,VN
Silver City,32.77,-108.28,84.2,11,10.3,1,1602974213,US
Mayo,63.59,-135.9,15.8,66,1.5,5,1602974214,CA
Sechura,-5.56,-80.82,70.30400000000006,68,6.83,39,1602974214,PE
Igrim,63.19,64.42,31.928000000000065,88,4.65,100,1602974214,RU
Havelock,46.0,-65.32,55.400000000000006,82,8.2,75,1602974214,CA
Sechelt,49.47,-123.77,55.004000000000055,83,0.89,79,1602973953,CA
Belmonte,-15.86,-38.88,75.2,73,4.1,75,1602974215,BR
Adrar,25.75,-1.0,76.82000000000006,18,2.36,79,1602974215,DZ
Vostok,46.49,135.88,37.90400000000005,89,4.06,42,1602974086,RU
Nyimba,-14.56,30.81,75.27200000000005,38,4.52,0,1602974215,ZM
Srīvardhan,18.03,73.02,76.5680000000001,89,3.85,56,1602974216,IN
Nautanwa,27.43,83.42,71.79800000000003,70,0.48,25,1602974216,IN
Kristiansund,63.11,7.73,42.8,60,16.5,79,1602974216,NO
Bandarbeyla,9.49,50.81,79.32200000000003,78,3.41,1,1602974216,SO
Grand-Santi,4.25,-54.38,85.29800000000003,45,2.01,77,1602974217,GF
Beaumont,30.09,-94.1,75.2,78,3.1,90,1602974051,US
Maua,0.23,37.94,60.54800000000003,99,3.82,70,1602974217,KE
Walla Walla,46.06,-118.34,64.99400000000009,36,5.7,1,1602974048,US
Kungurtug,50.6,97.52,29.51600000000001,87,0.91,96,1602974218,RU
Onoda,34.0,131.18,60.8,87,2.6,75,1602974039,JP
Tegul'det,57.31,88.17,46.23800000000004,80,7.1,99,1602973962,RU
Acaraú,-2.89,-40.12,79.05200000000008,80,7.0,89,1602974048,BR
Camacha,33.08,-16.33,69.80000000000001,64,5.1,20,1602974219,PT
San Rafael,-34.62,-68.33,86.558,17,4.74,0,1602974219,AR
Ilhéus,-14.79,-39.05,72.75200000000008,92,4.63,92,1602974219,BR
Trelew,-43.25,-65.31,74.80400000000006,20,7.22,23,1602973964,AR
Mehamn,71.04,27.85,36.82400000000001,78,4.49,91,1602974220,NO
Beşikdüzü,41.05,39.23,64.4,77,2.1,0,1602974220,TR
Padang,-0.95,100.35,76.83800000000005,77,1.36,68,1602974220,ID
Narsaq,60.92,-46.05,35.6,80,1.83,2,1602974159,GL
Fjerritslev,57.08,9.27,48.992,80,6.71,0,1602974221,DK
Khanu Woralaksaburi,16.06,99.86,72.5,96,3.31,100,1602974221,TH
Isetskoye,56.49,65.32,32.18000000000004,94,5.72,0,1602974222,RU
Shumskiy,54.83,99.13,37.59800000000003,77,2.18,95,1602974222,RU
Sobolevo,54.43,31.9,39.86600000000001,92,5.04,100,1602974222,RU
Keokuk,40.4,-91.38,69.00800000000001,35,7.2,1,1602974222,US
Pasni,25.26,63.47,78.20600000000003,28,15.12,44,1602974223,PK
St. Pete Beach,27.73,-82.74,84.99199999999999,66,6.7,1,1602974106,US
Mount Isa,-20.73,139.5,82.4,48,1.0,0,1602974223,AU
Coari,-4.08,-63.14,79.934,76,0.44,72,1602974223,BR
Port Macquarie,-31.43,152.92,75.99199999999999,62,0.45,91,1602974224,AU
Fort Frances,48.6,-93.4,39.00200000000008,74,1.5,90,1602974169,CA
Sudak,44.85,34.97,69.15200000000007,74,5.37,99,1602974224,UA
Acarí,-15.43,-74.62,66.74000000000002,64,2.47,24,1602974224,PE
Puri,19.8,85.85,80.29400000000007,81,3.44,93,1602974224,IN
Meulaboh,4.14,96.13,75.308,82,1.41,100,1602974225,ID
Maragogi,-9.01,-35.22,75.45200000000008,82,4.83,51,1602974225,BR
Korsholm,63.11,21.68,41.0,75,1.0,20,1602974225,FI
Luzilândia,-3.46,-42.37,76.96400000000003,81,3.22,37,1602974225,BR
Fethiye,36.62,29.12,66.2,88,2.1,75,1602974226,TR
Yarmouth,43.83,-66.12,48.2,87,11.3,90,1602974019,CA
Moba,-7.04,29.77,78.90800000000002,52,1.94,35,1602974226,CD
Mesopotamia,40.5,21.17,50.0,61,2.6,1,1602974226,GR
Fortuna,40.6,-124.16,68.0,68,8.7,20,1602974085,US
Zhigansk,66.77,123.37,11.966000000000008,94,3.79,98,1602974226,RU
Belyy Yar,53.6,91.39,48.2,64,4.0,100,1602974227,RU
Cayenne,4.93,-52.33,82.4,78,2.1,54,1602974227,GF
Auki,-8.77,160.7,88.19600000000005,60,0.83,87,1602973970,SB
Parole,38.98,-76.53,57.00200000000008,66,1.85,1,1602974228,US
Camopi,3.17,-52.32,79.53800000000004,65,1.75,64,1602974228,GF
Geraldton,-28.77,114.6,57.2,62,3.6,3,1602974228,AU
Bengkulu,-3.8,102.27,76.424,84,2.07,100,1602974082,ID
Açu,-5.58,-36.91,80.31200000000007,56,7.75,28,1602974229,BR
Bakchar,57.02,82.07,41.72000000000006,67,9.42,98,1602974110,RU
Tezu,27.92,96.17,73.92200000000004,66,1.36,0,1602974229,IN
Tromsø,69.65,18.96,33.8,74,8.2,40,1602974038,NO
Sittwe,20.15,92.9,78.8180000000001,90,3.76,88,1602974230,MM
Praya,-8.71,116.27,77.0,88,2.1,75,1602974230,ID
Kaduy,59.2,37.15,35.6,74,4.0,90,1602973989,RU
Nishihara,26.18,127.76,77.0,83,4.6,75,1602974157,JP
Kuah,6.33,99.84,77.0,100,1.5,20,1602974231,MY
Sainte-Suzanne,-20.91,55.61,68.0,77,3.1,20,1602974231,RE
Mhlume,-26.03,31.85,71.18600000000006,66,3.06,0,1602974231,SZ
Tyukhtet,56.54,89.3,45.158,66,6.13,100,1602974232,RU
Gigmoto,13.78,124.39,82.68800000000005,80,3.46,100,1602974232,PH
Zelenoborsk,61.47,64.03,30.218000000000085,90,5.35,53,1602973988,RU
Saint-Augustin,51.23,-58.65,55.79600000000005,87,7.91,85,1602974232,CA
Buenos Aires,9.17,-83.33,76.98200000000003,77,0.29,92,1602974233,CR
Vilyaka,57.18,27.67,33.98000000000004,89,1.52,72,1602974233,LV
Champerico,14.3,-91.92,78.80000000000001,88,2.33,90,1602974233,GT
Northam,-31.67,116.67,59.0,62,6.2,31,1602974233,AU
Yulara,-25.24,130.99,68.0,52,7.7,0,1602974234,AU
Coaldale,49.72,-112.62,28.004000000000055,73,4.1,90,1602974234,CA
Walvis Bay,-22.96,14.51,57.992,93,2.1,94,1602974234,NA
Broome,-17.97,122.23,78.80000000000001,78,3.6,0,1602974189,AU
Mossamedes,-15.2,12.15,69.08000000000004,74,3.92,14,1602974087,AO
Hervey Bay,-25.3,152.85,77.0,64,2.6,53,1602974235,AU
Humboldt,52.2,-105.13,26.528000000000066,82,7.06,100,1602974235,CA
Rūdbār,30.15,62.6,51.51200000000006,40,3.05,0,1602974235,AF
Eyl,7.98,49.82,79.68200000000002,77,4.69,9,1602974235,SO
Vanavara,60.34,102.28,35.096000000000046,96,2.26,100,1602974236,RU
Penzance,50.12,-5.54,51.998000000000026,87,3.6,87,1602974236,GB
Shihezi,44.3,86.03,45.248000000000026,51,0.24,0,1602974236,CN
Oranjemund,-28.55,16.43,58.33399999999999,90,4.26,1,1602974236,NA
Cabedelo,-6.98,-34.83,77.0,83,3.6,7,1602974236,BR
Santa Monica,34.02,-118.49,87.99800000000002,78,3.1,1,1602974237,US
Isangel,-19.55,169.27,78.80000000000001,74,3.6,20,1602974087,VU
Santiago,-14.19,-75.71,64.00400000000005,87,6.26,0,1602974237,PE
Srednekolymsk,67.45,153.68,24.494000000000074,97,3.65,74,1602974237,RU
Sola,-13.88,167.55,80.6,88,8.12,90,1602974238,VU
Whitehorse,60.72,-135.05,23.0,45,5.7,5,1602974170,CA
Dongsheng,39.82,109.98,36.842,61,1.9,4,1602974238,CN
Abhā,18.22,42.51,60.8,21,1.5,0,1602974238,SA
Ternate,0.8,127.4,78.83600000000007,87,6.4,100,1602974238,ID
Kovdor,67.57,30.48,28.07600000000009,94,3.15,100,1602974239,RU
Alofi,-19.06,-169.92,82.4,83,4.6,100,1602974239,NU
Vallenar,-28.57,-70.76,69.27800000000008,39,1.7,0,1602974239,CL
Kumul,42.8,93.45,43.34000000000002,51,2.78,0,1602974239,CN
Port Augusta,-32.5,137.77,57.2,54,5.7,90,1602974240,AU
Port Blair,11.67,92.75,77.39600000000004,85,5.59,100,1602974226,IN
Province of Huelva,37.67,-7.0,57.992,61,0.45,22,1602973985,ES
Nānākuli,21.39,-158.15,84.2,74,3.1,1,1602974241,US
Hofn,64.25,-15.21,40.964000000000034,82,1.34,100,1602974241,IS
La Asuncion,11.03,-63.86,81.35600000000002,84,5.49,5,1602974241,VE
Wanaka,-44.7,169.15,59.0,63,0.89,89,1602974242,NZ
Mikuni,36.22,136.15,48.2,93,1.0,20,1602974242,JP
Kununurra,-15.77,128.73,80.6,74,3.6,26,1602974167,AU
San Policarpo,12.18,125.51,81.93200000000002,81,0.86,98,1602974242,PH
Golden,51.3,-116.97,37.4,64,1.86,75,1602974243,CA
Ahipara,-35.17,173.17,61.736000000000075,58,3.4,8,1602974243,NZ
Gamba,-2.65,10.0,76.424,87,2.14,100,1602974080,GA
Shimoda,34.67,138.95,53.00600000000003,93,5.72,100,1602974245,JP
Dawlatabad,36.41,64.91,47.26400000000003,57,0.56,0,1602974245,AF
Lokosovo,61.13,74.82,28.922000000000036,98,10.07,100,1602974245,RU
Verkh-Usugli,52.7,115.17,22.24400000000007,92,1.13,82,1602974245,RU
Gizo Government Station,-8.1,156.84,83.87600000000009,72,3.05,75,1602974245,SB
Biak,-0.91,122.88,75.75800000000001,81,0.26,100,1602974246,ID
Loandjili,-4.76,11.86,80.6,83,4.1,75,1602974246,CG
Tombouctou,20.0,-3.0,89.78000000000004,16,4.22,0,1602974246,ML
Smolenka,52.14,113.5,32.0,90,4.0,91,1602974246,RU
Tanout,14.97,8.89,89.042,14,3.14,0,1602974247,NE
Verín,41.94,-7.44,44.00600000000003,87,1.03,73,1602974247,ES
Saint-Philippe,-21.36,55.77,69.99800000000002,68,2.1,29,1602974247,RE
Birjand,32.87,59.22,35.6,19,3.1,0,1602974247,IR
Kostanay,53.17,63.58,24.8,85,3.0,0,1602974247,KZ
